[  
   {  
      "originIata3":"ABJ",
      "originAirport":{  
         "id":251,
         "iata3":"ABJ",
         "name":"Port Bouet Airport",
         "city":"Abidjan",
         "country":"Cote d'Ivoire",
         "latitude":5.261390209,
         "longitude":-3.926290035
      },
      "destinationIata3":"BRU",
      "destinationAirport":{  
         "id":300,
         "iata3":"BRU",
         "name":"Brussels Airport",
         "city":"Brussels",
         "country":"Belgium",
         "latitude":50.90140152,
         "longitude":4.48443985
      }
   },
   {  
      "originIata3":"ABJ",
      "originAirport":{  
         "id":251,
         "iata3":"ABJ",
         "name":"Port Bouet Airport",
         "city":"Abidjan",
         "country":"Cote d'Ivoire",
         "latitude":5.261390209,
         "longitude":-3.926290035
      },
      "destinationIata3":"OUA",
      "destinationAirport":{  
         "id":244,
         "iata3":"OUA",
         "name":"Ouagadougou Airport",
         "city":"Ouagadougou",
         "country":"Burkina Faso",
         "latitude":12.35319996,
         "longitude":-1.512420058
      }
   },
   {  
      "originIata3":"ABJ",
      "originAirport":{  
         "id":251,
         "iata3":"ABJ",
         "name":"Port Bouet Airport",
         "city":"Abidjan",
         "country":"Cote d'Ivoire",
         "latitude":5.261390209,
         "longitude":-3.926290035
      },
      "destinationIata3":"IST",
      "destinationAirport":{  
         "id":1656,
         "iata3":"IST",
         "name":"Atatürk International Airport",
         "city":"Istanbul",
         "country":"Turkey",
         "latitude":40.97689819,
         "longitude":28.81459999
      }
   },
   {  
      "originIata3":"ABJ",
      "originAirport":{  
         "id":251,
         "iata3":"ABJ",
         "name":"Port Bouet Airport",
         "city":"Abidjan",
         "country":"Cote d'Ivoire",
         "latitude":5.261390209,
         "longitude":-3.926290035
      },
      "destinationIata3":"LFW",
      "destinationAirport":{  
         "id":296,
         "iata3":"LFW",
         "name":"Lomé-Tokoin Airport",
         "city":"Lome",
         "country":"Togo",
         "latitude":6.165609837,
         "longitude":1.254510045
      }
   }
]